{
  "dataOutput": [
    {
      "name": "Howard Warren",
      "vid": "4",
      "hours": "25",
      "place": " ",
      "returns": "10",
      "studies": "3",
      "notes": "Hello Wrold "
    },
    {
      "name": "Amando Best",
      "vid": "",
      "hours": "5",
      "place": "",
      "returns": "4",
      "studies": "",
      "notes": ""
    },
    {
      "name": "Roxan Best",
      "vid": "1",
      "hours": "10",
      "place": "2",
      "returns": "3",
      "studies": "1",
      "notes": " "
    },
    {
      "name": "Stephanie Charington",
      "vid": "1",
      "hours": "10",
      "place": "2",
      "returns": "3",
      "studies": "1",
      "notes": " "
    },
    {
      "name": "Olivia Freeman",
      "vid": "1",
      "hours": "10",
      "place": "2",
      "returns": "3",
      "studies": "1",
      "notes": " "
    },
    {
      "name": "Nereida Huertas",
      "vid": "1",
      "hours": "10",
      "place": "2",
      "returns": "3",
      "studies": "1",
      "notes": " "
    },
    {
      "name": "Anna Singleton",
      "vid": "1",
      "hours": "10",
      "place": "2",
      "returns": "3",
      "studies": "1",
      "notes": " "
    },
    {
      "name": "Amanda Spiteri",
      "vid": "1",
      "hours": "10",
      "place": "2",
      "returns": "3",
      "studies": "1",
      "notes": " "
    },
    {
      "name": "Monique Spiteri",
      "vid": "1",
      "hours": "10",
      "place": "2",
      "returns": "3",
      "studies": "1",
      "notes": " "
    },
    {
      "name": "Margarette Stewart",
      "vid": "1",
      "hours": "10",
      "place": "2",
      "returns": "3",
      "studies": "1",
      "notes": " "
    },
    {
      "name": "Russel Orion Stewart",
      "vid": "1",
      "hours": "10",
      "place": "2",
      "returns": "3",
      "studies": "1",
      "notes": " "
    },
    {
      "name": "Torrel Thomas",
      "vid": "1",
      "hours": "10",
      "place": "2",
      "returns": "3",
      "studies": "1",
      "notes": " "
    }
  ]
}
